[
    {
        "id": 39469,
        "name": "Ardres",
        "state_id": 4828,
        "state_code": "HDF",
        "state_name": "Hauts-de-France",
        "country_id": 75,
        "country_code": "FR",
        "country_name": "France",
        "latitude": "50.85786000",
        "longitude": "1.98168000",
        "wikiDataId": "Q262456"
    },
    {
        "id": 39490,
        "name": "Arleux",
        "state_id": 4828,
        "state_code": "HDF",
        "state_name": "Hauts-de-France",
        "country_id": 75,
        "country_code": "FR",
        "country_name": "France",
        "latitude": "50.28037000",
        "longitude": "3.10448000",
        "wikiDataId": "Q61573"
    },
    {
        "id": 39491,
        "name": "Armbouts-Cappel",
        "state_id": 4828,
        "state_code": "HDF",
        "state_name": "Hauts-de-France",
        "country_id": 75,
        "country_code": "FR",
        "country_name": "France",
        "latitude": "50.97682000",
        "longitude": "2.35352000",
        "wikiDataId": "Q61573"
    },
    {
        "id": 39493,
        "name": "Armentières",
        "state_id": 4828,
        "state_code": "HDF",
        "state_name": "Hauts-de-France",
        "country_id": 75,
        "country_code": "FR",
        "country_name": "France",
        "latitude": "50.68568000",
        "longitude": "2.88214000",
        "wikiDataId": "Q193925"
    },
    {
        "id": 39504,
        "name": "Arnèke",
        "state_id": 4828,
        "state_code": "HDF",
        "state_name": "Hauts-de-France",
        "country_id": 75,
        "country_code": "FR",
        "country_name": "France",
        "latitude": "50.83219000",
        "longitude": "2.40943000",
        "wikiDataId": "Q249043"
    },
    {
        "id": 39508,
        "name": "Arques",
        "state_id": 4828,
        "state_code": "HDF",
        "state_name": "Hauts-de-France",
        "country_id": 75,
        "country_code": "FR",
        "country_name": "France",
        "latitude": "50.73375000",
        "longitude": "2.30237000",
        "wikiDataId": "Q646708"
    },
    {
        "id": 39511,
        "name": "Arras",
        "state_id": 4828,
        "state_code": "HDF",
        "state_name": "Hauts-de-France",
        "country_id": 75,
        "country_code": "FR",
        "country_name": "France",
        "latitude": "50.29301000",
        "longitude": "2.78186000",
        "wikiDataId": "Q131329"
    },
    {
        "id": 39530,
        "name": "Artres",
        "state_id": 4828,
        "state_code": "HDF",
        "state_name": "Hauts-de-France",
        "country_id": 75,
        "country_code": "FR",
        "country_name": "France",
        "latitude": "50.29482000",
        "longitude": "3.54013000",
        "wikiDataId": "Q195031"
    },
    {
        "id": 39556,
        "name": "Athies-sous-Laon",
        "state_id": 4828,
        "state_code": "HDF",
        "state_name": "Hauts-de-France",
        "country_id": 75,
        "country_code": "FR",
        "country_name": "France",
        "latitude": "49.57369000",
        "longitude": "3.68417000",
        "wikiDataId": "Q383977"
    },
    {
        "id": 39561,
        "name": "Attiches",
        "state_id": 4828,
        "state_code": "HDF",
        "state_name": "Hauts-de-France",
        "country_id": 75,
        "country_code": "FR",
        "country_name": "France",
        "latitude": "50.52220000",
        "longitude": "3.06222000",
        "wikiDataId": "Q244289"
    },
    {
        "id": 39562,
        "name": "Attichy",
        "state_id": 4828,
        "state_code": "HDF",
        "state_name": "Hauts-de-France",
        "country_id": 75,
        "country_code": "FR",
        "country_name": "France",
        "latitude": "49.41121000",
        "longitude": "3.04949000",
        "wikiDataId": "Q696480"
    },
    {
        "id": 39570,
        "name": "Auberchicourt",
        "state_id": 4828,
        "state_code": "HDF",
        "state_name": "Hauts-de-France",
        "country_id": 75,
        "country_code": "FR",
        "country_name": "France",
        "latitude": "50.33333000",
        "longitude": "3.23333000",
        "wikiDataId": "Q1066554"
    },
    {
        "id": 39573,
        "name": "Aubers",
        "state_id": 4828,
        "state_code": "HDF",
        "state_name": "Hauts-de-France",
        "country_id": 75,
        "country_code": "FR",
        "country_name": "France",
        "latitude": "50.59543000",
        "longitude": "2.82666000",
        "wikiDataId": "Q664635"
    },
    {
        "id": 39580,
        "name": "Aubigny-au-Bac",
        "state_id": 4828,
        "state_code": "HDF",
        "state_name": "Hauts-de-France",
        "country_id": 75,
        "country_code": "FR",
        "country_name": "France",
        "latitude": "50.26370000",
        "longitude": "3.16448000",
        "wikiDataId": "Q658812"
    },
    {
        "id": 39581,
        "name": "Aubigny-en-Artois",
        "state_id": 4828,
        "state_code": "HDF",
        "state_name": "Hauts-de-France",
        "country_id": 75,
        "country_code": "FR",
        "country_name": "France",
        "latitude": "50.35000000",
        "longitude": "2.58333000",
        "wikiDataId": "Q658812"
    },
    {
        "id": 39588,
        "name": "Aubry-du-Hainaut",
        "state_id": 4828,
        "state_code": "HDF",
        "state_name": "Hauts-de-France",
        "country_id": 75,
        "country_code": "FR",
        "country_name": "France",
        "latitude": "50.36667000",
        "longitude": "3.46667000",
        "wikiDataId": "Q1135089"
    },
    {
        "id": 39590,
        "name": "Auby",
        "state_id": 4828,
        "state_code": "HDF",
        "state_name": "Hauts-de-France",
        "country_id": 75,
        "country_code": "FR",
        "country_name": "France",
        "latitude": "50.41457000",
        "longitude": "3.05396000",
        "wikiDataId": "Q949466"
    },
    {
        "id": 39593,
        "name": "Auchel",
        "state_id": 4828,
        "state_code": "HDF",
        "state_name": "Hauts-de-France",
        "country_id": 75,
        "country_code": "FR",
        "country_name": "France",
        "latitude": "50.50345000",
        "longitude": "2.47346000",
        "wikiDataId": "Q323152"
    },
    {
        "id": 39595,
        "name": "Auchy-lès-Hesdin",
        "state_id": 4828,
        "state_code": "HDF",
        "state_name": "Hauts-de-France",
        "country_id": 75,
        "country_code": "FR",
        "country_name": "France",
        "latitude": "50.40114000",
        "longitude": "2.10145000",
        "wikiDataId": "Q323152"
    },
    {
        "id": 39594,
        "name": "Auchy-les-Mines",
        "state_id": 4828,
        "state_code": "HDF",
        "state_name": "Hauts-de-France",
        "country_id": 75,
        "country_code": "FR",
        "country_name": "France",
        "latitude": "50.51349000",
        "longitude": "2.78283000",
        "wikiDataId": "Q323152"
    },
    {
        "id": 39599,
        "name": "Audruicq",
        "state_id": 4828,
        "state_code": "HDF",
        "state_name": "Hauts-de-France",
        "country_id": 75,
        "country_code": "FR",
        "country_name": "France",
        "latitude": "50.87795000",
        "longitude": "2.07975000",
        "wikiDataId": "Q853600"
    },
    {
        "id": 39611,
        "name": "Aulnois-sous-Laon",
        "state_id": 4828,
        "state_code": "HDF",
        "state_name": "Hauts-de-France",
        "country_id": 75,
        "country_code": "FR",
        "country_name": "France",
        "latitude": "49.61429000",
        "longitude": "3.60547000",
        "wikiDataId": "Q21806"
    },
    {
        "id": 39612,
        "name": "Aulnoy-lez-Valenciennes",
        "state_id": 4828,
        "state_code": "HDF",
        "state_name": "Hauts-de-France",
        "country_id": 75,
        "country_code": "FR",
        "country_name": "France",
        "latitude": "50.33333000",
        "longitude": "3.53333000",
        "wikiDataId": "Q21806"
    },
    {
        "id": 39613,
        "name": "Aulnoye-Aymeries",
        "state_id": 4828,
        "state_code": "HDF",
        "state_name": "Hauts-de-France",
        "country_id": 75,
        "country_code": "FR",
        "country_name": "France",
        "latitude": "50.20141000",
        "longitude": "3.83844000",
        "wikiDataId": "Q43411"
    },
    {
        "id": 39614,
        "name": "Ault",
        "state_id": 4828,
        "state_code": "HDF",
        "state_name": "Hauts-de-France",
        "country_id": 75,
        "country_code": "FR",
        "country_name": "France",
        "latitude": "50.10404000",
        "longitude": "1.45000000",
        "wikiDataId": "Q43411"
    },
    {
        "id": 39621,
        "name": "Auneuil",
        "state_id": 4828,
        "state_code": "HDF",
        "state_name": "Hauts-de-France",
        "country_id": 75,
        "country_code": "FR",
        "country_name": "France",
        "latitude": "49.37026000",
        "longitude": "1.99712000",
        "wikiDataId": "Q637489"
    },
    {
        "id": 39645,
        "name": "Auxi-le-Château",
        "state_id": 4828,
        "state_code": "HDF",
        "state_name": "Hauts-de-France",
        "country_id": 75,
        "country_code": "FR",
        "country_name": "France",
        "latitude": "50.23101000",
        "longitude": "2.11593000",
        "wikiDataId": "Q167600"
    },
    {
        "id": 39661,
        "name": "Avelin",
        "state_id": 4828,
        "state_code": "HDF",
        "state_name": "Hauts-de-France",
        "country_id": 75,
        "country_code": "FR",
        "country_name": "France",
        "latitude": "50.53968000",
        "longitude": "3.08222000",
        "wikiDataId": "Q1357594"
    },
    {
        "id": 39664,
        "name": "Avesnelles",
        "state_id": 4828,
        "state_code": "HDF",
        "state_name": "Hauts-de-France",
        "country_id": 75,
        "country_code": "FR",
        "country_name": "France",
        "latitude": "50.11782000",
        "longitude": "3.94674000",
        "wikiDataId": "Q779926"
    },
    {
        "id": 39665,
        "name": "Avesnes-le-Comte",
        "state_id": 4828,
        "state_code": "HDF",
        "state_name": "Hauts-de-France",
        "country_id": 75,
        "country_code": "FR",
        "country_name": "France",
        "latitude": "50.27767000",
        "longitude": "2.52957000",
        "wikiDataId": "Q779926"
    },
    {
        "id": 39666,
        "name": "Avesnes-le-Sec",
        "state_id": 4828,
        "state_code": "HDF",
        "state_name": "Hauts-de-France",
        "country_id": 75,
        "country_code": "FR",
        "country_name": "France",
        "latitude": "50.25100000",
        "longitude": "3.37768000",
        "wikiDataId": "Q779926"
    },
    {
        "id": 39667,
        "name": "Avesnes-les-Aubert",
        "state_id": 4828,
        "state_code": "HDF",
        "state_name": "Hauts-de-France",
        "country_id": 75,
        "country_code": "FR",
        "country_name": "France",
        "latitude": "50.20000000",
        "longitude": "3.38333000",
        "wikiDataId": "Q779926"
    },
    {
        "id": 39671,
        "name": "Avilly-Saint-Léonard",
        "state_id": 4828,
        "state_code": "HDF",
        "state_name": "Hauts-de-France",
        "country_id": 75,
        "country_code": "FR",
        "country_name": "France",
        "latitude": "49.19449000",
        "longitude": "2.54148000",
        "wikiDataId": "Q676493"
    },
    {
        "id": 39672,
        "name": "Avion",
        "state_id": 4828,
        "state_code": "HDF",
        "state_name": "Hauts-de-France",
        "country_id": 75,
        "country_code": "FR",
        "country_name": "France",
        "latitude": "50.41038000",
        "longitude": "2.83053000",
        "wikiDataId": "Q331624"
    },
    {
        "id": 39679,
        "name": "Avrechy",
        "state_id": 4828,
        "state_code": "HDF",
        "state_name": "Hauts-de-France",
        "country_id": 75,
        "country_code": "FR",
        "country_name": "France",
        "latitude": "49.44796000",
        "longitude": "2.42710000",
        "wikiDataId": "Q1106562"
    },
    {
        "id": 39700,
        "name": "Bachant",
        "state_id": 4828,
        "state_code": "HDF",
        "state_name": "Hauts-de-France",
        "country_id": 75,
        "country_code": "FR",
        "country_name": "France",
        "latitude": "50.21540000",
        "longitude": "3.86835000",
        "wikiDataId": "Q49345047"
    },
    {
        "id": 39701,
        "name": "Bachy",
        "state_id": 4828,
        "state_code": "HDF",
        "state_name": "Hauts-de-France",
        "country_id": 75,
        "country_code": "FR",
        "country_name": "France",
        "latitude": "50.55079000",
        "longitude": "3.25976000",
        "wikiDataId": "Q49345047"
    },
    {
        "id": 39725,
        "name": "Bailleul",
        "state_id": 4828,
        "state_code": "HDF",
        "state_name": "Hauts-de-France",
        "country_id": 75,
        "country_code": "FR",
        "country_name": "France",
        "latitude": "50.73592000",
        "longitude": "2.73594000",
        "wikiDataId": "Q188368"
    },
    {
        "id": 39726,
        "name": "Bailleul-Sir-Berthoult",
        "state_id": 4828,
        "state_code": "HDF",
        "state_name": "Hauts-de-France",
        "country_id": 75,
        "country_code": "FR",
        "country_name": "France",
        "latitude": "50.33752000",
        "longitude": "2.85129000",
        "wikiDataId": "Q188368"
    },
    {
        "id": 39727,
        "name": "Bailleul-sur-Thérain",
        "state_id": 4828,
        "state_code": "HDF",
        "state_name": "Hauts-de-France",
        "country_id": 75,
        "country_code": "FR",
        "country_name": "France",
        "latitude": "49.38526000",
        "longitude": "2.22279000",
        "wikiDataId": "Q188368"
    },
    {
        "id": 39728,
        "name": "Bailleval",
        "state_id": 4828,
        "state_code": "HDF",
        "state_name": "Hauts-de-France",
        "country_id": 75,
        "country_code": "FR",
        "country_name": "France",
        "latitude": "49.34605000",
        "longitude": "2.45695000",
        "wikiDataId": "Q941547"
    },
    {
        "id": 39733,
        "name": "Baincthun",
        "state_id": 4828,
        "state_code": "HDF",
        "state_name": "Hauts-de-France",
        "country_id": 75,
        "country_code": "FR",
        "country_name": "France",
        "latitude": "50.70994000",
        "longitude": "1.68075000",
        "wikiDataId": "Q377641"
    },
    {
        "id": 39740,
        "name": "Baisieux",
        "state_id": 4828,
        "state_code": "HDF",
        "state_name": "Hauts-de-France",
        "country_id": 75,
        "country_code": "FR",
        "country_name": "France",
        "latitude": "50.60841000",
        "longitude": "3.25251000",
        "wikiDataId": "Q473093"
    },
    {
        "id": 39742,
        "name": "Balagny-sur-Thérain",
        "state_id": 4828,
        "state_code": "HDF",
        "state_name": "Hauts-de-France",
        "country_id": 75,
        "country_code": "FR",
        "country_name": "France",
        "latitude": "49.29605000",
        "longitude": "2.33645000",
        "wikiDataId": "Q1098975"
    },
    {
        "id": 39764,
        "name": "Bapaume",
        "state_id": 4828,
        "state_code": "HDF",
        "state_name": "Hauts-de-France",
        "country_id": 75,
        "country_code": "FR",
        "country_name": "France",
        "latitude": "50.10379000",
        "longitude": "2.84966000",
        "wikiDataId": "Q317235"
    },
    {
        "id": 39787,
        "name": "Barlin",
        "state_id": 4828,
        "state_code": "HDF",
        "state_name": "Hauts-de-France",
        "country_id": 75,
        "country_code": "FR",
        "country_name": "France",
        "latitude": "50.45238000",
        "longitude": "2.61955000",
        "wikiDataId": "Q321965"
    },
    {
        "id": 39816,
        "name": "Bauvin",
        "state_id": 4828,
        "state_code": "HDF",
        "state_name": "Hauts-de-France",
        "country_id": 75,
        "country_code": "FR",
        "country_name": "France",
        "latitude": "50.51714000",
        "longitude": "2.89404000",
        "wikiDataId": "Q548352"
    },
    {
        "id": 39818,
        "name": "Bavay",
        "state_id": 4828,
        "state_code": "HDF",
        "state_name": "Hauts-de-France",
        "country_id": 75,
        "country_code": "FR",
        "country_name": "France",
        "latitude": "50.29828000",
        "longitude": "3.79372000",
        "wikiDataId": "Q477176"
    },
    {
        "id": 39837,
        "name": "Beaucamps-le-Vieux",
        "state_id": 4828,
        "state_code": "HDF",
        "state_name": "Hauts-de-France",
        "country_id": 75,
        "country_code": "FR",
        "country_name": "France",
        "latitude": "49.84642000",
        "longitude": "1.78272000",
        "wikiDataId": "Q1222948"
    },
    {
        "id": 39839,
        "name": "Beauchamps",
        "state_id": 4828,
        "state_code": "HDF",
        "state_name": "Hauts-de-France",
        "country_id": 75,
        "country_code": "FR",
        "country_name": "France",
        "latitude": "50.01202000",
        "longitude": "1.51764000",
        "wikiDataId": "Q1222948"
    },
    {
        "id": 39858,
        "name": "Beaumetz-lès-Loges",
        "state_id": 4828,
        "state_code": "HDF",
        "state_name": "Hauts-de-France",
        "country_id": 75,
        "country_code": "FR",
        "country_name": "France",
        "latitude": "50.23897000",
        "longitude": "2.65818000",
        "wikiDataId": "Q381313"
    },
    {
        "id": 39879,
        "name": "Beauquesne",
        "state_id": 4828,
        "state_code": "HDF",
        "state_name": "Hauts-de-France",
        "country_id": 75,
        "country_code": "FR",
        "country_name": "France",
        "latitude": "50.08526000",
        "longitude": "2.39276000",
        "wikiDataId": "Q752918"
    },
    {
        "id": 39880,
        "name": "Beaurains",
        "state_id": 4828,
        "state_code": "HDF",
        "state_name": "Hauts-de-France",
        "country_id": 75,
        "country_code": "FR",
        "country_name": "France",
        "latitude": "50.26599000",
        "longitude": "2.79467000",
        "wikiDataId": "Q752918"
    },
    {
        "id": 39881,
        "name": "Beaurainville",
        "state_id": 4828,
        "state_code": "HDF",
        "state_name": "Hauts-de-France",
        "country_id": 75,
        "country_code": "FR",
        "country_name": "France",
        "latitude": "50.42432000",
        "longitude": "1.89938000",
        "wikiDataId": "Q752918"
    },
    {
        "id": 39884,
        "name": "Beaurevoir",
        "state_id": 4828,
        "state_code": "HDF",
        "state_name": "Hauts-de-France",
        "country_id": 75,
        "country_code": "FR",
        "country_name": "France",
        "latitude": "49.99714000",
        "longitude": "3.30855000",
        "wikiDataId": "Q274740"
    },
    {
        "id": 39888,
        "name": "Beautor",
        "state_id": 4828,
        "state_code": "HDF",
        "state_name": "Hauts-de-France",
        "country_id": 75,
        "country_code": "FR",
        "country_name": "France",
        "latitude": "49.65214000",
        "longitude": "3.34475000",
        "wikiDataId": "Q274740"
    },
    {
        "id": 39889,
        "name": "Beauvais",
        "state_id": 4828,
        "state_code": "HDF",
        "state_name": "Hauts-de-France",
        "country_id": 75,
        "country_code": "FR",
        "country_name": "France",
        "latitude": "49.43333000",
        "longitude": "2.08333000",
        "wikiDataId": "Q274740"
    },
    {
        "id": 39890,
        "name": "Beauval",
        "state_id": 4828,
        "state_code": "HDF",
        "state_name": "Hauts-de-France",
        "country_id": 75,
        "country_code": "FR",
        "country_name": "France",
        "latitude": "50.10789000",
        "longitude": "2.33269000",
        "wikiDataId": "Q274740"
    },
    {
        "id": 39895,
        "name": "Beauvois-en-Cambrésis",
        "state_id": 4828,
        "state_code": "HDF",
        "state_name": "Hauts-de-France",
        "country_id": 75,
        "country_code": "FR",
        "country_name": "France",
        "latitude": "50.13735000",
        "longitude": "3.37870000",
        "wikiDataId": "Q1058535"
    },
    {
        "id": 39908,
        "name": "Bellaing",
        "state_id": 4828,
        "state_code": "HDF",
        "state_name": "Hauts-de-France",
        "country_id": 75,
        "country_code": "FR",
        "country_name": "France",
        "latitude": "50.36811000",
        "longitude": "3.42515000",
        "wikiDataId": "Q214597"
    },
    {
        "id": 39920,
        "name": "Belleu",
        "state_id": 4828,
        "state_code": "HDF",
        "state_name": "Hauts-de-France",
        "country_id": 75,
        "country_code": "FR",
        "country_name": "France",
        "latitude": "49.35917000",
        "longitude": "3.33556000",
        "wikiDataId": "Q1321539"
    },
    {
        "id": 39943,
        "name": "Berck",
        "state_id": 4828,
        "state_code": "HDF",
        "state_name": "Hauts-de-France",
        "country_id": 75,
        "country_code": "FR",
        "country_name": "France",
        "latitude": "50.40000000",
        "longitude": "1.60000000",
        "wikiDataId": "Q223902"
    },
    {
        "id": 39944,
        "name": "Berck-Plage",
        "state_id": 4828,
        "state_code": "HDF",
        "state_name": "Hauts-de-France",
        "country_id": 75,
        "country_code": "FR",
        "country_name": "France",
        "latitude": "50.40704000",
        "longitude": "1.56446000",
        "wikiDataId": "Q223902"
    },
    {
        "id": 39948,
        "name": "Bergues",
        "state_id": 4828,
        "state_code": "HDF",
        "state_name": "Hauts-de-France",
        "country_id": 75,
        "country_code": "FR",
        "country_name": "France",
        "latitude": "50.96882000",
        "longitude": "2.43242000",
        "wikiDataId": "Q244934"
    },
    {
        "id": 39949,
        "name": "Berlaimont",
        "state_id": 4828,
        "state_code": "HDF",
        "state_name": "Hauts-de-France",
        "country_id": 75,
        "country_code": "FR",
        "country_name": "France",
        "latitude": "50.20155000",
        "longitude": "3.81343000",
        "wikiDataId": "Q46007"
    },
    {
        "id": 39951,
        "name": "Bernaville",
        "state_id": 4828,
        "state_code": "HDF",
        "state_name": "Hauts-de-France",
        "country_id": 75,
        "country_code": "FR",
        "country_name": "France",
        "latitude": "50.13232000",
        "longitude": "2.16300000",
        "wikiDataId": "Q962896"
    },
    {
        "id": 39966,
        "name": "Bersée",
        "state_id": 4828,
        "state_code": "HDF",
        "state_name": "Hauts-de-France",
        "country_id": 75,
        "country_code": "FR",
        "country_name": "France",
        "latitude": "50.47978000",
        "longitude": "3.14765000",
        "wikiDataId": "Q62850"
    },
    {
        "id": 39967,
        "name": "Berteaucourt-les-Dames",
        "state_id": 4828,
        "state_code": "HDF",
        "state_name": "Hauts-de-France",
        "country_id": 75,
        "country_code": "FR",
        "country_name": "France",
        "latitude": "50.04697000",
        "longitude": "2.15750000",
        "wikiDataId": "Q62850"
    },
    {
        "id": 39968,
        "name": "Berthecourt",
        "state_id": 4828,
        "state_code": "HDF",
        "state_name": "Hauts-de-France",
        "country_id": 75,
        "country_code": "FR",
        "country_name": "France",
        "latitude": "49.35097000",
        "longitude": "2.22471000",
        "wikiDataId": "Q1098591"
    },
    {
        "id": 39970,
        "name": "Bertry",
        "state_id": 4828,
        "state_code": "HDF",
        "state_name": "Hauts-de-France",
        "country_id": 75,
        "country_code": "FR",
        "country_name": "France",
        "latitude": "50.08718000",
        "longitude": "3.44298000",
        "wikiDataId": "Q1046194"
    },
    {
        "id": 40430,
        "name": "Béthencourt-sur-Mer",
        "state_id": 4828,
        "state_code": "HDF",
        "state_name": "Hauts-de-France",
        "country_id": 75,
        "country_code": "FR",
        "country_name": "France",
        "latitude": "50.07756000",
        "longitude": "1.50348000",
        "wikiDataId": "Q1354133"
    },
    {
        "id": 40432,
        "name": "Béthisy-Saint-Martin",
        "state_id": 4828,
        "state_code": "HDF",
        "state_name": "Hauts-de-France",
        "country_id": 75,
        "country_code": "FR",
        "country_name": "France",
        "latitude": "49.29480000",
        "longitude": "2.81743000",
        "wikiDataId": "Q1098924"
    },
    {
        "id": 40433,
        "name": "Béthisy-Saint-Pierre",
        "state_id": 4828,
        "state_code": "HDF",
        "state_name": "Hauts-de-France",
        "country_id": 75,
        "country_code": "FR",
        "country_name": "France",
        "latitude": "49.30482000",
        "longitude": "2.79636000",
        "wikiDataId": "Q737451"
    },
    {
        "id": 40434,
        "name": "Béthune",
        "state_id": 4828,
        "state_code": "HDF",
        "state_name": "Hauts-de-France",
        "country_id": 75,
        "country_code": "FR",
        "country_name": "France",
        "latitude": "50.52965000",
        "longitude": "2.64003000",
        "wikiDataId": "Q737451"
    },
    {
        "id": 39988,
        "name": "Betz",
        "state_id": 4828,
        "state_code": "HDF",
        "state_name": "Hauts-de-France",
        "country_id": 75,
        "country_code": "FR",
        "country_name": "France",
        "latitude": "49.15558000",
        "longitude": "2.95584000",
        "wikiDataId": "Q22384"
    },
    {
        "id": 39992,
        "name": "Beuvrages",
        "state_id": 4828,
        "state_code": "HDF",
        "state_name": "Hauts-de-France",
        "country_id": 75,
        "country_code": "FR",
        "country_name": "France",
        "latitude": "50.38414000",
        "longitude": "3.49420000",
        "wikiDataId": "Q22384"
    },
    {
        "id": 39993,
        "name": "Beuvry",
        "state_id": 4828,
        "state_code": "HDF",
        "state_name": "Hauts-de-France",
        "country_id": 75,
        "country_code": "FR",
        "country_name": "France",
        "latitude": "50.51674000",
        "longitude": "2.68541000",
        "wikiDataId": "Q334249"
    },
    {
        "id": 40004,
        "name": "Biache-Saint-Vaast",
        "state_id": 4828,
        "state_code": "HDF",
        "state_name": "Hauts-de-France",
        "country_id": 75,
        "country_code": "FR",
        "country_name": "France",
        "latitude": "50.30869000",
        "longitude": "2.94777000",
        "wikiDataId": "Q238429"
    },
    {
        "id": 40012,
        "name": "Bierne",
        "state_id": 4828,
        "state_code": "HDF",
        "state_name": "Hauts-de-France",
        "country_id": 75,
        "country_code": "FR",
        "country_name": "France",
        "latitude": "50.96232000",
        "longitude": "2.40963000",
        "wikiDataId": "Q932076"
    },
    {
        "id": 40022,
        "name": "Billy-Berclau",
        "state_id": 4828,
        "state_code": "HDF",
        "state_name": "Hauts-de-France",
        "country_id": 75,
        "country_code": "FR",
        "country_name": "France",
        "latitude": "50.51783000",
        "longitude": "2.86613000",
        "wikiDataId": "Q325913"
    },
    {
        "id": 40023,
        "name": "Billy-Montigny",
        "state_id": 4828,
        "state_code": "HDF",
        "state_name": "Hauts-de-France",
        "country_id": 75,
        "country_code": "FR",
        "country_name": "France",
        "latitude": "50.41711000",
        "longitude": "2.90286000",
        "wikiDataId": "Q772803"
    },
    {
        "id": 40024,
        "name": "Billy-sur-Aisne",
        "state_id": 4828,
        "state_code": "HDF",
        "state_name": "Hauts-de-France",
        "country_id": 75,
        "country_code": "FR",
        "country_name": "France",
        "latitude": "49.35632000",
        "longitude": "3.38357000",
        "wikiDataId": "Q772803"
    },
    {
        "id": 40047,
        "name": "Blaincourt-lès-Précy",
        "state_id": 4828,
        "state_code": "HDF",
        "state_name": "Hauts-de-France",
        "country_id": 75,
        "country_code": "FR",
        "country_name": "France",
        "latitude": "49.23333000",
        "longitude": "2.35000000",
        "wikiDataId": "Q946691"
    },
    {
        "id": 40058,
        "name": "Blaringhem",
        "state_id": 4828,
        "state_code": "HDF",
        "state_name": "Hauts-de-France",
        "country_id": 75,
        "country_code": "FR",
        "country_name": "France",
        "latitude": "50.69110000",
        "longitude": "2.40321000",
        "wikiDataId": "Q1117320"
    },
    {
        "id": 40064,
        "name": "Blendecques",
        "state_id": 4828,
        "state_code": "HDF",
        "state_name": "Hauts-de-France",
        "country_id": 75,
        "country_code": "FR",
        "country_name": "France",
        "latitude": "50.71843000",
        "longitude": "2.28601000",
        "wikiDataId": "Q599950"
    },
    {
        "id": 40075,
        "name": "Blérancourt",
        "state_id": 4828,
        "state_code": "HDF",
        "state_name": "Hauts-de-France",
        "country_id": 75,
        "country_code": "FR",
        "country_name": "France",
        "latitude": "49.51667000",
        "longitude": "3.15000000",
        "wikiDataId": "Q669867"
    },
    {
        "id": 40080,
        "name": "Boeschepe",
        "state_id": 4828,
        "state_code": "HDF",
        "state_name": "Hauts-de-France",
        "country_id": 75,
        "country_code": "FR",
        "country_name": "France",
        "latitude": "50.80000000",
        "longitude": "2.70000000",
        "wikiDataId": "Q843380"
    },
    {
        "id": 40081,
        "name": "Bohain-en-Vermandois",
        "state_id": 4828,
        "state_code": "HDF",
        "state_name": "Hauts-de-France",
        "country_id": 75,
        "country_code": "FR",
        "country_name": "France",
        "latitude": "49.98730000",
        "longitude": "3.45300000",
        "wikiDataId": "Q271329"
    },
    {
        "id": 40085,
        "name": "Bois-Grenier",
        "state_id": 4828,
        "state_code": "HDF",
        "state_name": "Hauts-de-France",
        "country_id": 75,
        "country_code": "FR",
        "country_name": "France",
        "latitude": "50.64985000",
        "longitude": "2.87409000",
        "wikiDataId": "Q212566"
    },
    {
        "id": 40103,
        "name": "Bollezeele",
        "state_id": 4828,
        "state_code": "HDF",
        "state_name": "Hauts-de-France",
        "country_id": 75,
        "country_code": "FR",
        "country_name": "France",
        "latitude": "50.86687000",
        "longitude": "2.34751000",
        "wikiDataId": "Q1046977"
    },
    {
        "id": 40112,
        "name": "Bondues",
        "state_id": 4828,
        "state_code": "HDF",
        "state_name": "Hauts-de-France",
        "country_id": 75,
        "country_code": "FR",
        "country_name": "France",
        "latitude": "50.70196000",
        "longitude": "3.09497000",
        "wikiDataId": "Q767186"
    },
    {
        "id": 40135,
        "name": "Boran-sur-Oise",
        "state_id": 4828,
        "state_code": "HDF",
        "state_name": "Hauts-de-France",
        "country_id": 75,
        "country_code": "FR",
        "country_name": "France",
        "latitude": "49.16715000",
        "longitude": "2.35803000",
        "wikiDataId": "Q675687"
    },
    {
        "id": 40142,
        "name": "Bornel",
        "state_id": 4828,
        "state_code": "HDF",
        "state_name": "Hauts-de-France",
        "country_id": 75,
        "country_code": "FR",
        "country_name": "France",
        "latitude": "49.19820000",
        "longitude": "2.20912000",
        "wikiDataId": "Q961299"
    },
    {
        "id": 40151,
        "name": "Bouchain",
        "state_id": 4828,
        "state_code": "HDF",
        "state_name": "Hauts-de-France",
        "country_id": 75,
        "country_code": "FR",
        "country_name": "France",
        "latitude": "50.28519000",
        "longitude": "3.31491000",
        "wikiDataId": "Q320282"
    },
    {
        "id": 40238,
        "name": "Boué",
        "state_id": 4828,
        "state_code": "HDF",
        "state_name": "Hauts-de-France",
        "country_id": 75,
        "country_code": "FR",
        "country_name": "France",
        "latitude": "50.01141000",
        "longitude": "3.69608000",
        "wikiDataId": "Q1030362"
    },
    {
        "id": 40174,
        "name": "Boulogne-sur-Mer",
        "state_id": 4828,
        "state_code": "HDF",
        "state_name": "Hauts-de-France",
        "country_id": 75,
        "country_code": "FR",
        "country_name": "France",
        "latitude": "50.72571000",
        "longitude": "1.61392000",
        "wikiDataId": "Q689480"
    },
    {
        "id": 40181,
        "name": "Bourbourg",
        "state_id": 4828,
        "state_code": "HDF",
        "state_name": "Hauts-de-France",
        "country_id": 75,
        "country_code": "FR",
        "country_name": "France",
        "latitude": "50.94783000",
        "longitude": "2.19576000",
        "wikiDataId": "Q632822"
    },
    {
        "id": 40200,
        "name": "Bourghelles",
        "state_id": 4828,
        "state_code": "HDF",
        "state_name": "Hauts-de-France",
        "country_id": 75,
        "country_code": "FR",
        "country_name": "France",
        "latitude": "50.56501000",
        "longitude": "3.24447000",
        "wikiDataId": "Q132404"
    },
    {
        "id": 40208,
        "name": "Bourlon",
        "state_id": 4828,
        "state_code": "HDF",
        "state_name": "Hauts-de-France",
        "country_id": 75,
        "country_code": "FR",
        "country_name": "France",
        "latitude": "50.17692000",
        "longitude": "3.11425000",
        "wikiDataId": "Q994971"
    },
    {
        "id": 40214,
        "name": "Bousbecque",
        "state_id": 4828,
        "state_code": "HDF",
        "state_name": "Hauts-de-France",
        "country_id": 75,
        "country_code": "FR",
        "country_name": "France",
        "latitude": "50.77123000",
        "longitude": "3.08459000",
        "wikiDataId": "Q1021939"
    },
    {
        "id": 40215,
        "name": "Bousies",
        "state_id": 4828,
        "state_code": "HDF",
        "state_name": "Hauts-de-France",
        "country_id": 75,
        "country_code": "FR",
        "country_name": "France",
        "latitude": "50.15097000",
        "longitude": "3.61752000",
        "wikiDataId": "Q632387"
    },
    {
        "id": 40220,
        "name": "Boussois",
        "state_id": 4828,
        "state_code": "HDF",
        "state_name": "Hauts-de-France",
        "country_id": 75,
        "country_code": "FR",
        "country_name": "France",
        "latitude": "50.28907000",
        "longitude": "4.04117000",
        "wikiDataId": "Q683059"
    },
    {
        "id": 40225,
        "name": "Bouttencourt",
        "state_id": 4828,
        "state_code": "HDF",
        "state_name": "Hauts-de-France",
        "country_id": 75,
        "country_code": "FR",
        "country_name": "France",
        "latitude": "49.93725000",
        "longitude": "1.63431000",
        "wikiDataId": "Q1599390"
    },
    {
        "id": 40227,
        "name": "Bouvignies",
        "state_id": 4828,
        "state_code": "HDF",
        "state_name": "Hauts-de-France",
        "country_id": 75,
        "country_code": "FR",
        "country_name": "France",
        "latitude": "50.43627000",
        "longitude": "3.24361000",
        "wikiDataId": "Q1599390"
    },
    {
        "id": 40228,
        "name": "Bouvigny-Boyeffles",
        "state_id": 4828,
        "state_code": "HDF",
        "state_name": "Hauts-de-France",
        "country_id": 75,
        "country_code": "FR",
        "country_name": "France",
        "latitude": "50.42146000",
        "longitude": "2.67209000",
        "wikiDataId": "Q1030362"
    },
    {
        "id": 40239,
        "name": "Boves",
        "state_id": 4828,
        "state_code": "HDF",
        "state_name": "Hauts-de-France",
        "country_id": 75,
        "country_code": "FR",
        "country_name": "France",
        "latitude": "49.84645000",
        "longitude": "2.39605000",
        "wikiDataId": "Q1030362"
    },
    {
        "id": 40249,
        "name": "Braine",
        "state_id": 4828,
        "state_code": "HDF",
        "state_name": "Hauts-de-France",
        "country_id": 75,
        "country_code": "FR",
        "country_name": "France",
        "latitude": "49.34261000",
        "longitude": "3.53262000",
        "wikiDataId": "Q1135654"
    },
    {
        "id": 40259,
        "name": "Brasles",
        "state_id": 4828,
        "state_code": "HDF",
        "state_name": "Hauts-de-France",
        "country_id": 75,
        "country_code": "FR",
        "country_name": "France",
        "latitude": "49.04810000",
        "longitude": "3.43000000",
        "wikiDataId": "Q266840"
    },
    {
        "id": 40266,
        "name": "Bray-Dunes",
        "state_id": 4828,
        "state_code": "HDF",
        "state_name": "Hauts-de-France",
        "country_id": 75,
        "country_code": "FR",
        "country_name": "France",
        "latitude": "51.07786000",
        "longitude": "2.51673000",
        "wikiDataId": "Q391365"
    },
    {
        "id": 40269,
        "name": "Bray-sur-Somme",
        "state_id": 4828,
        "state_code": "HDF",
        "state_name": "Hauts-de-France",
        "country_id": 75,
        "country_code": "FR",
        "country_name": "France",
        "latitude": "49.94085000",
        "longitude": "2.71847000",
        "wikiDataId": "Q251119"
    },
    {
        "id": 40271,
        "name": "Brebières",
        "state_id": 4828,
        "state_code": "HDF",
        "state_name": "Hauts-de-France",
        "country_id": 75,
        "country_code": "FR",
        "country_name": "France",
        "latitude": "50.33333000",
        "longitude": "3.01667000",
        "wikiDataId": "Q850917"
    },
    {
        "id": 40365,
        "name": "Brêmes",
        "state_id": 4828,
        "state_code": "HDF",
        "state_name": "Hauts-de-France",
        "country_id": 75,
        "country_code": "FR",
        "country_name": "France",
        "latitude": "50.85483000",
        "longitude": "1.97687000",
        "wikiDataId": "Q244508"
    },
    {
        "id": 40274,
        "name": "Brenouille",
        "state_id": 4828,
        "state_code": "HDF",
        "state_name": "Hauts-de-France",
        "country_id": 75,
        "country_code": "FR",
        "country_name": "France",
        "latitude": "49.30551000",
        "longitude": "2.54437000",
        "wikiDataId": "Q1106709"
    },
    {
        "id": 40276,
        "name": "Bresles",
        "state_id": 4828,
        "state_code": "HDF",
        "state_name": "Hauts-de-France",
        "country_id": 75,
        "country_code": "FR",
        "country_name": "France",
        "latitude": "49.41044000",
        "longitude": "2.25024000",
        "wikiDataId": "Q1106709"
    },
    {
        "id": 40283,
        "name": "Breteuil",
        "state_id": 4828,
        "state_code": "HDF",
        "state_name": "Hauts-de-France",
        "country_id": 75,
        "country_code": "FR",
        "country_name": "France",
        "latitude": "49.63357000",
        "longitude": "2.29509000",
        "wikiDataId": "Q1105296"
    },
    {
        "id": 40293,
        "name": "Breuil-le-Sec",
        "state_id": 4828,
        "state_code": "HDF",
        "state_name": "Hauts-de-France",
        "country_id": 75,
        "country_code": "FR",
        "country_name": "France",
        "latitude": "49.37135000",
        "longitude": "2.45084000",
        "wikiDataId": "Q1346647"
    },
    {
        "id": 40294,
        "name": "Breuil-le-Vert",
        "state_id": 4828,
        "state_code": "HDF",
        "state_name": "Hauts-de-France",
        "country_id": 75,
        "country_code": "FR",
        "country_name": "France",
        "latitude": "49.36176000",
        "longitude": "2.43633000",
        "wikiDataId": "Q943707"
    },
    {
        "id": 40336,
        "name": "Brouckerque",
        "state_id": 4828,
        "state_code": "HDF",
        "state_name": "Hauts-de-France",
        "country_id": 75,
        "country_code": "FR",
        "country_name": "France",
        "latitude": "50.95476000",
        "longitude": "2.29378000",
        "wikiDataId": "Q1104616"
    },
    {
        "id": 40338,
        "name": "Bruay-la-Buissière",
        "state_id": 4828,
        "state_code": "HDF",
        "state_name": "Hauts-de-France",
        "country_id": 75,
        "country_code": "FR",
        "country_name": "France",
        "latitude": "50.48333000",
        "longitude": "2.55000000",
        "wikiDataId": "Q206539"
    },
    {
        "id": 40339,
        "name": "Bruay-sur-l’Escaut",
        "state_id": 4828,
        "state_code": "HDF",
        "state_name": "Hauts-de-France",
        "country_id": 75,
        "country_code": "FR",
        "country_name": "France",
        "latitude": "50.39918000",
        "longitude": "3.54379000",
        "wikiDataId": "Q1066768"
    },
    {
        "id": 40344,
        "name": "Bruille-lez-Marchiennes",
        "state_id": 4828,
        "state_code": "HDF",
        "state_name": "Hauts-de-France",
        "country_id": 75,
        "country_code": "FR",
        "country_name": "France",
        "latitude": "50.36068000",
        "longitude": "3.24424000",
        "wikiDataId": "Q1342233"
    },
    {
        "id": 40343,
        "name": "Bruille-Saint-Amand",
        "state_id": 4828,
        "state_code": "HDF",
        "state_name": "Hauts-de-France",
        "country_id": 75,
        "country_code": "FR",
        "country_name": "France",
        "latitude": "50.46605000",
        "longitude": "3.50013000",
        "wikiDataId": "Q1342233"
    },
    {
        "id": 40349,
        "name": "Bruyères-et-Montbérault",
        "state_id": 4828,
        "state_code": "HDF",
        "state_name": "Hauts-de-France",
        "country_id": 75,
        "country_code": "FR",
        "country_name": "France",
        "latitude": "49.52535000",
        "longitude": "3.66369000",
        "wikiDataId": "Q200575"
    },
    {
        "id": 40372,
        "name": "Bucquoy",
        "state_id": 4828,
        "state_code": "HDF",
        "state_name": "Hauts-de-France",
        "country_id": 75,
        "country_code": "FR",
        "country_name": "France",
        "latitude": "50.13973000",
        "longitude": "2.71036000",
        "wikiDataId": "Q272472"
    },
    {
        "id": 40373,
        "name": "Bucy-le-Long",
        "state_id": 4828,
        "state_code": "HDF",
        "state_name": "Hauts-de-France",
        "country_id": 75,
        "country_code": "FR",
        "country_name": "France",
        "latitude": "49.39072000",
        "longitude": "3.39582000",
        "wikiDataId": "Q272472"
    },
    {
        "id": 40378,
        "name": "Buironfosse",
        "state_id": 4828,
        "state_code": "HDF",
        "state_name": "Hauts-de-France",
        "country_id": 75,
        "country_code": "FR",
        "country_name": "France",
        "latitude": "49.96659000",
        "longitude": "3.83587000",
        "wikiDataId": "Q322395"
    },
    {
        "id": 40384,
        "name": "Bully-les-Mines",
        "state_id": 4828,
        "state_code": "HDF",
        "state_name": "Hauts-de-France",
        "country_id": 75,
        "country_code": "FR",
        "country_name": "France",
        "latitude": "50.44380000",
        "longitude": "2.72703000",
        "wikiDataId": "Q34784394"
    },
    {
        "id": 40385,
        "name": "Burbure",
        "state_id": 4828,
        "state_code": "HDF",
        "state_name": "Hauts-de-France",
        "country_id": 75,
        "country_code": "FR",
        "country_name": "France",
        "latitude": "50.53663000",
        "longitude": "2.46897000",
        "wikiDataId": "Q34784394"
    },
    {
        "id": 40392,
        "name": "Bury",
        "state_id": 4828,
        "state_code": "HDF",
        "state_name": "Hauts-de-France",
        "country_id": 75,
        "country_code": "FR",
        "country_name": "France",
        "latitude": "49.31307000",
        "longitude": "2.34401000",
        "wikiDataId": "Q1058377"
    },
    {
        "id": 40393,
        "name": "Busigny",
        "state_id": 4828,
        "state_code": "HDF",
        "state_name": "Hauts-de-France",
        "country_id": 75,
        "country_code": "FR",
        "country_name": "France",
        "latitude": "50.03424000",
        "longitude": "3.46713000",
        "wikiDataId": "Q660899"
    },
    {
        "id": 40394,
        "name": "Busnes",
        "state_id": 4828,
        "state_code": "HDF",
        "state_name": "Hauts-de-France",
        "country_id": 75,
        "country_code": "FR",
        "country_name": "France",
        "latitude": "50.58781000",
        "longitude": "2.51827000",
        "wikiDataId": "Q660899"
    },
    {
        "id": 40630,
        "name": "Caëstre",
        "state_id": 4828,
        "state_code": "HDF",
        "state_name": "Hauts-de-France",
        "country_id": 75,
        "country_code": "FR",
        "country_name": "France",
        "latitude": "50.75838000",
        "longitude": "2.60274000",
        "wikiDataId": "Q1072594"
    },
    {
        "id": 40460,
        "name": "Cagny",
        "state_id": 4828,
        "state_code": "HDF",
        "state_name": "Hauts-de-France",
        "country_id": 75,
        "country_code": "FR",
        "country_name": "France",
        "latitude": "49.86217000",
        "longitude": "2.34266000",
        "wikiDataId": "Q193832"
    },
    {
        "id": 40469,
        "name": "Calais",
        "state_id": 4828,
        "state_code": "HDF",
        "state_name": "Hauts-de-France",
        "country_id": 75,
        "country_code": "FR",
        "country_name": "France",
        "latitude": "50.95194000",
        "longitude": "1.85635000",
        "wikiDataId": "Q6454"
    },
    {
        "id": 40475,
        "name": "Calonne-Ricouart",
        "state_id": 4828,
        "state_code": "HDF",
        "state_name": "Hauts-de-France",
        "country_id": 75,
        "country_code": "FR",
        "country_name": "France",
        "latitude": "50.48504000",
        "longitude": "2.47335000",
        "wikiDataId": "Q856488"
    },
    {
        "id": 40476,
        "name": "Calonne-sur-la-Lys",
        "state_id": 4828,
        "state_code": "HDF",
        "state_name": "Hauts-de-France",
        "country_id": 75,
        "country_code": "FR",
        "country_name": "France",
        "latitude": "50.62292000",
        "longitude": "2.61664000",
        "wikiDataId": "Q856488"
    },
    {
        "id": 40486,
        "name": "Camblain-Châtelain",
        "state_id": 4828,
        "state_code": "HDF",
        "state_name": "Hauts-de-France",
        "country_id": 75,
        "country_code": "FR",
        "country_name": "France",
        "latitude": "50.48355000",
        "longitude": "2.45521000",
        "wikiDataId": "Q34789374"
    },
    {
        "id": 40489,
        "name": "Cambrai",
        "state_id": 4828,
        "state_code": "HDF",
        "state_name": "Hauts-de-France",
        "country_id": 75,
        "country_code": "FR",
        "country_name": "France",
        "latitude": "50.17596000",
        "longitude": "3.23472000",
        "wikiDataId": "Q181285"
    },
    {
        "id": 40491,
        "name": "Cambronne-lès-Clermont",
        "state_id": 4828,
        "state_code": "HDF",
        "state_name": "Hauts-de-France",
        "country_id": 75,
        "country_code": "FR",
        "country_name": "France",
        "latitude": "49.33022000",
        "longitude": "2.39928000",
        "wikiDataId": "Q181285"
    },
    {
        "id": 40492,
        "name": "Cambronne-lès-Ribécourt",
        "state_id": 4828,
        "state_code": "HDF",
        "state_name": "Hauts-de-France",
        "country_id": 75,
        "country_code": "FR",
        "country_name": "France",
        "latitude": "49.50711000",
        "longitude": "2.89797000",
        "wikiDataId": "Q181285"
    },
    {
        "id": 40493,
        "name": "Camiers",
        "state_id": 4828,
        "state_code": "HDF",
        "state_name": "Hauts-de-France",
        "country_id": 75,
        "country_code": "FR",
        "country_name": "France",
        "latitude": "50.57153000",
        "longitude": "1.61325000",
        "wikiDataId": "Q874676"
    },
    {
        "id": 40494,
        "name": "Camon",
        "state_id": 4828,
        "state_code": "HDF",
        "state_name": "Hauts-de-France",
        "country_id": 75,
        "country_code": "FR",
        "country_name": "France",
        "latitude": "49.88764000",
        "longitude": "2.34486000",
        "wikiDataId": "Q874676"
    },
    {
        "id": 40496,
        "name": "Campagne-lès-Hesdin",
        "state_id": 4828,
        "state_code": "HDF",
        "state_name": "Hauts-de-France",
        "country_id": 75,
        "country_code": "FR",
        "country_name": "France",
        "latitude": "50.39724000",
        "longitude": "1.87494000",
        "wikiDataId": "Q34789454"
    },
    {
        "id": 40499,
        "name": "Camphin-en-Carembault",
        "state_id": 4828,
        "state_code": "HDF",
        "state_name": "Hauts-de-France",
        "country_id": 75,
        "country_code": "FR",
        "country_name": "France",
        "latitude": "50.51196000",
        "longitude": "2.98710000",
        "wikiDataId": "Q34789515"
    },
    {
        "id": 40500,
        "name": "Camphin-en-Pévèle",
        "state_id": 4828,
        "state_code": "HDF",
        "state_name": "Hauts-de-France",
        "country_id": 75,
        "country_code": "FR",
        "country_name": "France",
        "latitude": "50.59561000",
        "longitude": "3.26082000",
        "wikiDataId": "Q34789515"
    },
    {
        "id": 40521,
        "name": "Cantin",
        "state_id": 4828,
        "state_code": "HDF",
        "state_name": "Hauts-de-France",
        "country_id": 75,
        "country_code": "FR",
        "country_name": "France",
        "latitude": "50.30885000",
        "longitude": "3.12765000",
        "wikiDataId": "Q672549"
    },
    {
        "id": 40529,
        "name": "Capinghem",
        "state_id": 4828,
        "state_code": "HDF",
        "state_name": "Hauts-de-France",
        "country_id": 75,
        "country_code": "FR",
        "country_name": "France",
        "latitude": "50.64551000",
        "longitude": "2.96193000",
        "wikiDataId": "Q270323"
    },
    {
        "id": 40530,
        "name": "Cappelle-en-Pévèle",
        "state_id": 4828,
        "state_code": "HDF",
        "state_name": "Hauts-de-France",
        "country_id": 75,
        "country_code": "FR",
        "country_name": "France",
        "latitude": "50.51011000",
        "longitude": "3.17133000",
        "wikiDataId": "Q732623"
    },
    {
        "id": 40531,
        "name": "Cappelle-la-Grande",
        "state_id": 4828,
        "state_code": "HDF",
        "state_name": "Hauts-de-France",
        "country_id": 75,
        "country_code": "FR",
        "country_name": "France",
        "latitude": "50.99979000",
        "longitude": "2.35848000",
        "wikiDataId": "Q732623"
    },
    {
        "id": 40547,
        "name": "Carlepont",
        "state_id": 4828,
        "state_code": "HDF",
        "state_name": "Hauts-de-France",
        "country_id": 75,
        "country_code": "FR",
        "country_name": "France",
        "latitude": "49.51438000",
        "longitude": "3.02327000",
        "wikiDataId": "Q367728"
    },
    {
        "id": 40566,
        "name": "Cartignies",
        "state_id": 4828,
        "state_code": "HDF",
        "state_name": "Hauts-de-France",
        "country_id": 75,
        "country_code": "FR",
        "country_name": "France",
        "latitude": "50.09290000",
        "longitude": "3.84473000",
        "wikiDataId": "Q325395"
    },
    {
        "id": 40567,
        "name": "Carvin",
        "state_id": 4828,
        "state_code": "HDF",
        "state_name": "Hauts-de-France",
        "country_id": 75,
        "country_code": "FR",
        "country_name": "France",
        "latitude": "50.49235000",
        "longitude": "2.95815000",
        "wikiDataId": "Q325395"
    },
    {
        "id": 40569,
        "name": "Cassel",
        "state_id": 4828,
        "state_code": "HDF",
        "state_name": "Hauts-de-France",
        "country_id": 75,
        "country_code": "FR",
        "country_name": "France",
        "latitude": "50.80109000",
        "longitude": "2.48527000",
        "wikiDataId": "Q1020818"
    },
    {
        "id": 40598,
        "name": "Catenoy",
        "state_id": 4828,
        "state_code": "HDF",
        "state_name": "Hauts-de-France",
        "country_id": 75,
        "country_code": "FR",
        "country_name": "France",
        "latitude": "49.36824000",
        "longitude": "2.51054000",
        "wikiDataId": "Q967426"
    },
    {
        "id": 40600,
        "name": "Cauchy-à-la-Tour",
        "state_id": 4828,
        "state_code": "HDF",
        "state_name": "Hauts-de-France",
        "country_id": 75,
        "country_code": "FR",
        "country_name": "France",
        "latitude": "50.50394000",
        "longitude": "2.44606000",
        "wikiDataId": "Q21770"
    },
    {
        "id": 40604,
        "name": "Caudry",
        "state_id": 4828,
        "state_code": "HDF",
        "state_name": "Hauts-de-France",
        "country_id": 75,
        "country_code": "FR",
        "country_name": "France",
        "latitude": "50.12490000",
        "longitude": "3.41186000",
        "wikiDataId": "Q476016"
    },
    {
        "id": 40605,
        "name": "Cauffry",
        "state_id": 4828,
        "state_code": "HDF",
        "state_name": "Hauts-de-France",
        "country_id": 75,
        "country_code": "FR",
        "country_name": "France",
        "latitude": "49.31978000",
        "longitude": "2.44581000",
        "wikiDataId": "Q1097001"
    },
    {
        "id": 40614,
        "name": "Cauvigny",
        "state_id": 4828,
        "state_code": "HDF",
        "state_name": "Hauts-de-France",
        "country_id": 75,
        "country_code": "FR",
        "country_name": "France",
        "latitude": "49.30180000",
        "longitude": "2.24844000",
        "wikiDataId": "Q1095678"
    },
    {
        "id": 40622,
        "name": "Cayeux-sur-Mer",
        "state_id": 4828,
        "state_code": "HDF",
        "state_name": "Hauts-de-France",
        "country_id": 75,
        "country_code": "FR",
        "country_name": "France",
        "latitude": "50.18200000",
        "longitude": "1.49400000",
        "wikiDataId": "Q1024720"
    },
    {
        "id": 40702,
        "name": "Chamant",
        "state_id": 4828,
        "state_code": "HDF",
        "state_name": "Hauts-de-France",
        "country_id": 75,
        "country_code": "FR",
        "country_name": "France",
        "latitude": "49.21990000",
        "longitude": "2.61176000",
        "wikiDataId": "Q1096165"
    },
    {
        "id": 40706,
        "name": "Chambly",
        "state_id": 4828,
        "state_code": "HDF",
        "state_name": "Hauts-de-France",
        "country_id": 75,
        "country_code": "FR",
        "country_name": "France",
        "latitude": "49.16667000",
        "longitude": "2.25000000",
        "wikiDataId": "Q471080"
    },
    {
        "id": 40775,
        "name": "Chantilly",
        "state_id": 4828,
        "state_code": "HDF",
        "state_name": "Hauts-de-France",
        "country_id": 75,
        "country_code": "FR",
        "country_name": "France",
        "latitude": "49.19461000",
        "longitude": "2.47124000",
        "wikiDataId": "Q216863"
    },
    {
        "id": 40805,
        "name": "Charly-sur-Marne",
        "state_id": 4828,
        "state_code": "HDF",
        "state_name": "Hauts-de-France",
        "country_id": 75,
        "country_code": "FR",
        "country_name": "France",
        "latitude": "48.97749000",
        "longitude": "3.28464000",
        "wikiDataId": "Q34791996"
    },
    {
        "id": 40807,
        "name": "Charmes",
        "state_id": 4828,
        "state_code": "HDF",
        "state_name": "Hauts-de-France",
        "country_id": 75,
        "country_code": "FR",
        "country_name": "France",
        "latitude": "49.65345000",
        "longitude": "3.37857000",
        "wikiDataId": "Q34791996"
    },
    {
        "id": 40946,
        "name": "Château-Thierry",
        "state_id": 4828,
        "state_code": "HDF",
        "state_name": "Hauts-de-France",
        "country_id": 75,
        "country_code": "FR",
        "country_name": "France",
        "latitude": "49.04636000",
        "longitude": "3.40304000",
        "wikiDataId": "Q194145"
    },
    {
        "id": 40841,
        "name": "Chaulnes",
        "state_id": 4828,
        "state_code": "HDF",
        "state_name": "Hauts-de-France",
        "country_id": 75,
        "country_code": "FR",
        "country_name": "France",
        "latitude": "49.81699000",
        "longitude": "2.80064000",
        "wikiDataId": "Q58892"
    },
    {
        "id": 40844,
        "name": "Chaumont-en-Vexin",
        "state_id": 4828,
        "state_code": "HDF",
        "state_name": "Hauts-de-France",
        "country_id": 75,
        "country_code": "FR",
        "country_name": "France",
        "latitude": "49.26595000",
        "longitude": "1.88597000",
        "wikiDataId": "Q193880"
    },
    {
        "id": 40849,
        "name": "Chauny",
        "state_id": 4828,
        "state_code": "HDF",
        "state_name": "Hauts-de-France",
        "country_id": 75,
        "country_code": "FR",
        "country_name": "France",
        "latitude": "49.61514000",
        "longitude": "3.21857000",
        "wikiDataId": "Q269833"
    },
    {
        "id": 41012,
        "name": "Chépy",
        "state_id": 4828,
        "state_code": "HDF",
        "state_name": "Hauts-de-France",
        "country_id": 75,
        "country_code": "FR",
        "country_name": "France",
        "latitude": "50.06361000",
        "longitude": "1.64694000",
        "wikiDataId": "Q34794605"
    },
    {
        "id": 41015,
        "name": "Chéreng",
        "state_id": 4828,
        "state_code": "HDF",
        "state_name": "Hauts-de-France",
        "country_id": 75,
        "country_code": "FR",
        "country_name": "France",
        "latitude": "50.61059000",
        "longitude": "3.20666000",
        "wikiDataId": "Q303294"
    },
    {
        "id": 40902,
        "name": "Chevrières",
        "state_id": 4828,
        "state_code": "HDF",
        "state_name": "Hauts-de-France",
        "country_id": 75,
        "country_code": "FR",
        "country_name": "France",
        "latitude": "49.34645000",
        "longitude": "2.68219000",
        "wikiDataId": "Q399366"
    },
    {
        "id": 41017,
        "name": "Chézy-sur-Marne",
        "state_id": 4828,
        "state_code": "HDF",
        "state_name": "Hauts-de-France",
        "country_id": 75,
        "country_code": "FR",
        "country_name": "France",
        "latitude": "48.98881000",
        "longitude": "3.36786000",
        "wikiDataId": "Q303294"
    },
    {
        "id": 40906,
        "name": "Chierry",
        "state_id": 4828,
        "state_code": "HDF",
        "state_name": "Hauts-de-France",
        "country_id": 75,
        "country_code": "FR",
        "country_name": "France",
        "latitude": "49.03940000",
        "longitude": "3.42976000",
        "wikiDataId": "Q34793011"
    },
    {
        "id": 40915,
        "name": "Chiry-Ourscamp",
        "state_id": 4828,
        "state_code": "HDF",
        "state_name": "Hauts-de-France",
        "country_id": 75,
        "country_code": "FR",
        "country_name": "France",
        "latitude": "49.54378000",
        "longitude": "2.94721000",
        "wikiDataId": "Q282431"
    },
    {
        "id": 40918,
        "name": "Chocques",
        "state_id": 4828,
        "state_code": "HDF",
        "state_name": "Hauts-de-France",
        "country_id": 75,
        "country_code": "FR",
        "country_name": "France",
        "latitude": "50.54084000",
        "longitude": "2.57193000",
        "wikiDataId": "Q1135543"
    },
    {
        "id": 40921,
        "name": "Choisy-au-Bac",
        "state_id": 4828,
        "state_code": "HDF",
        "state_name": "Hauts-de-France",
        "country_id": 75,
        "country_code": "FR",
        "country_name": "France",
        "latitude": "49.43777000",
        "longitude": "2.87739000",
        "wikiDataId": "Q741010"
    },
    {
        "id": 41022,
        "name": "Cinqueux",
        "state_id": 4828,
        "state_code": "HDF",
        "state_name": "Hauts-de-France",
        "country_id": 75,
        "country_code": "FR",
        "country_name": "France",
        "latitude": "49.31739000",
        "longitude": "2.52997000",
        "wikiDataId": "Q1095022"
    },
    {
        "id": 41025,
        "name": "Cires-lès-Mello",
        "state_id": 4828,
        "state_code": "HDF",
        "state_name": "Hauts-de-France",
        "country_id": 75,
        "country_code": "FR",
        "country_name": "France",
        "latitude": "49.27242000",
        "longitude": "2.35840000",
        "wikiDataId": "Q34795333"
    },
    {
        "id": 41036,
        "name": "Clairoix",
        "state_id": 4828,
        "state_code": "HDF",
        "state_name": "Hauts-de-France",
        "country_id": 75,
        "country_code": "FR",
        "country_name": "France",
        "latitude": "49.44264000",
        "longitude": "2.84628000",
        "wikiDataId": "Q669796"
    },
    {
        "id": 41044,
        "name": "Clary",
        "state_id": 4828,
        "state_code": "HDF",
        "state_name": "Hauts-de-France",
        "country_id": 75,
        "country_code": "FR",
        "country_name": "France",
        "latitude": "50.07789000",
        "longitude": "3.39943000",
        "wikiDataId": "Q931360"
    },
    {
        "id": 41047,
        "name": "Clermont",
        "state_id": 4828,
        "state_code": "HDF",
        "state_name": "Hauts-de-France",
        "country_id": 75,
        "country_code": "FR",
        "country_name": "France",
        "latitude": "49.37897000",
        "longitude": "2.41258000",
        "wikiDataId": "Q1365831"
    },
    {
        "id": 41085,
        "name": "Coincy",
        "state_id": 4828,
        "state_code": "HDF",
        "state_name": "Hauts-de-France",
        "country_id": 75,
        "country_code": "FR",
        "country_name": "France",
        "latitude": "49.16036000",
        "longitude": "3.42202000",
        "wikiDataId": "Q492333"
    },
    {
        "id": 41089,
        "name": "Colleret",
        "state_id": 4828,
        "state_code": "HDF",
        "state_name": "Hauts-de-France",
        "country_id": 75,
        "country_code": "FR",
        "country_name": "France",
        "latitude": "50.25693000",
        "longitude": "4.08083000",
        "wikiDataId": "Q492333"
    },
    {
        "id": 41116,
        "name": "Comines",
        "state_id": 4828,
        "state_code": "HDF",
        "state_name": "Hauts-de-France",
        "country_id": 75,
        "country_code": "FR",
        "country_name": "France",
        "latitude": "50.76150000",
        "longitude": "3.01063000",
        "wikiDataId": "Q275375"
    },
    {
        "id": 41124,
        "name": "Compiègne",
        "state_id": 4828,
        "state_code": "HDF",
        "state_name": "Hauts-de-France",
        "country_id": 75,
        "country_code": "FR",
        "country_name": "France",
        "latitude": "49.41794000",
        "longitude": "2.82606000",
        "wikiDataId": "Q180871"
    },
    {
        "id": 41141,
        "name": "Condé-sur-l’Escaut",
        "state_id": 4828,
        "state_code": "HDF",
        "state_name": "Hauts-de-France",
        "country_id": 75,
        "country_code": "FR",
        "country_name": "France",
        "latitude": "50.45436000",
        "longitude": "3.58884000",
        "wikiDataId": "Q1003409"
    },
    {
        "id": 41132,
        "name": "Condette",
        "state_id": 4828,
        "state_code": "HDF",
        "state_name": "Hauts-de-France",
        "country_id": 75,
        "country_code": "FR",
        "country_name": "France",
        "latitude": "50.65817000",
        "longitude": "1.63386000",
        "wikiDataId": "Q988758"
    },
    {
        "id": 41158,
        "name": "Conty",
        "state_id": 4828,
        "state_code": "HDF",
        "state_name": "Hauts-de-France",
        "country_id": 75,
        "country_code": "FR",
        "country_name": "France",
        "latitude": "49.74100000",
        "longitude": "2.15120000",
        "wikiDataId": "Q68977"
    },
    {
        "id": 41159,
        "name": "Coquelles",
        "state_id": 4828,
        "state_code": "HDF",
        "state_name": "Hauts-de-France",
        "country_id": 75,
        "country_code": "FR",
        "country_name": "France",
        "latitude": "50.93461000",
        "longitude": "1.79880000",
        "wikiDataId": "Q380987"
    },
    {
        "id": 41163,
        "name": "Corbehem",
        "state_id": 4828,
        "state_code": "HDF",
        "state_name": "Hauts-de-France",
        "country_id": 75,
        "country_code": "FR",
        "country_name": "France",
        "latitude": "50.33141000",
        "longitude": "3.04995000",
        "wikiDataId": "Q1651173"
    },
    {
        "id": 41168,
        "name": "Corbie",
        "state_id": 4828,
        "state_code": "HDF",
        "state_name": "Hauts-de-France",
        "country_id": 75,
        "country_code": "FR",
        "country_name": "France",
        "latitude": "49.90672000",
        "longitude": "2.50682000",
        "wikiDataId": "Q71469"
    },
    {
        "id": 41218,
        "name": "Coucy-le-Château-Auffrique",
        "state_id": 4828,
        "state_code": "HDF",
        "state_name": "Hauts-de-France",
        "country_id": 75,
        "country_code": "FR",
        "country_name": "France",
        "latitude": "49.52083000",
        "longitude": "3.32381000",
        "wikiDataId": "Q34796877"
    },
    {
        "id": 41219,
        "name": "Coudekerque-Branche",
        "state_id": 4828,
        "state_code": "HDF",
        "state_name": "Hauts-de-France",
        "country_id": 75,
        "country_code": "FR",
        "country_name": "France",
        "latitude": "51.02288000",
        "longitude": "2.39359000",
        "wikiDataId": "Q243851"
    },
    {
        "id": 41220,
        "name": "Coudekerque-Village",
        "state_id": 4828,
        "state_code": "HDF",
        "state_name": "Hauts-de-France",
        "country_id": 75,
        "country_code": "FR",
        "country_name": "France",
        "latitude": "51.00000000",
        "longitude": "2.41667000",
        "wikiDataId": "Q243851"
    },
    {
        "id": 41222,
        "name": "Coudun",
        "state_id": 4828,
        "state_code": "HDF",
        "state_name": "Hauts-de-France",
        "country_id": 75,
        "country_code": "FR",
        "country_name": "France",
        "latitude": "49.46146000",
        "longitude": "2.81248000",
        "wikiDataId": "Q692732"
    },
    {
        "id": 41232,
        "name": "Coulogne",
        "state_id": 4828,
        "state_code": "HDF",
        "state_name": "Hauts-de-France",
        "country_id": 75,
        "country_code": "FR",
        "country_name": "France",
        "latitude": "50.92463000",
        "longitude": "1.88137000",
        "wikiDataId": "Q305768"
    },
    {
        "id": 41243,
        "name": "Courcelles-lès-Lens",
        "state_id": 4828,
        "state_code": "HDF",
        "state_name": "Hauts-de-France",
        "country_id": 75,
        "country_code": "FR",
        "country_name": "France",
        "latitude": "50.41667000",
        "longitude": "3.01667000",
        "wikiDataId": "Q189715"
    },
    {
        "id": 41246,
        "name": "Courchelettes",
        "state_id": 4828,
        "state_code": "HDF",
        "state_name": "Hauts-de-France",
        "country_id": 75,
        "country_code": "FR",
        "country_name": "France",
        "latitude": "50.34043000",
        "longitude": "3.05938000",
        "wikiDataId": "Q189715"
    },
    {
        "id": 41254,
        "name": "Courmelles",
        "state_id": 4828,
        "state_code": "HDF",
        "state_name": "Hauts-de-France",
        "country_id": 75,
        "country_code": "FR",
        "country_name": "France",
        "latitude": "49.34595000",
        "longitude": "3.31215000",
        "wikiDataId": "Q847122"
    },
    {
        "id": 41260,
        "name": "Courrières",
        "state_id": 4828,
        "state_code": "HDF",
        "state_name": "Hauts-de-France",
        "country_id": 75,
        "country_code": "FR",
        "country_name": "France",
        "latitude": "50.45701000",
        "longitude": "2.94725000",
        "wikiDataId": "Q323072"
    },
    {
        "id": 41276,
        "name": "Cousolre",
        "state_id": 4828,
        "state_code": "HDF",
        "state_name": "Hauts-de-France",
        "country_id": 75,
        "country_code": "FR",
        "country_name": "France",
        "latitude": "50.24607000",
        "longitude": "4.14941000",
        "wikiDataId": "Q426922"
    },
    {
        "id": 41281,
        "name": "Coutiches",
        "state_id": 4828,
        "state_code": "HDF",
        "state_name": "Hauts-de-France",
        "country_id": 75,
        "country_code": "FR",
        "country_name": "France",
        "latitude": "50.45520000",
        "longitude": "3.20384000",
        "wikiDataId": "Q941432"
    },
    {
        "id": 41284,
        "name": "Couvron-et-Aumencourt",
        "state_id": 4828,
        "state_code": "HDF",
        "state_name": "Hauts-de-France",
        "country_id": 75,
        "country_code": "FR",
        "country_name": "France",
        "latitude": "49.64476000",
        "longitude": "3.51857000",
        "wikiDataId": "Q243898"
    },
    {
        "id": 41289,
        "name": "Coye-la-Forêt",
        "state_id": 4828,
        "state_code": "HDF",
        "state_name": "Hauts-de-France",
        "country_id": 75,
        "country_code": "FR",
        "country_name": "France",
        "latitude": "49.14233000",
        "longitude": "2.47038000",
        "wikiDataId": "Q651924"
    },
    {
        "id": 41341,
        "name": "Crécy-en-Ponthieu",
        "state_id": 4828,
        "state_code": "HDF",
        "state_name": "Hauts-de-France",
        "country_id": 75,
        "country_code": "FR",
        "country_name": "France",
        "latitude": "50.25193000",
        "longitude": "1.88085000",
        "wikiDataId": "Q61765"
    },
    {
        "id": 41342,
        "name": "Crécy-sur-Serre",
        "state_id": 4828,
        "state_code": "HDF",
        "state_name": "Hauts-de-France",
        "country_id": 75,
        "country_code": "FR",
        "country_name": "France",
        "latitude": "49.69594000",
        "longitude": "3.62453000",
        "wikiDataId": "Q840977"
    },
    {
        "id": 41302,
        "name": "Creil",
        "state_id": 4828,
        "state_code": "HDF",
        "state_name": "Hauts-de-France",
        "country_id": 75,
        "country_code": "FR",
        "country_name": "France",
        "latitude": "49.25672000",
        "longitude": "2.48477000",
        "wikiDataId": "Q270654"
    },
    {
        "id": 41349,
        "name": "Crépy",
        "state_id": 4828,
        "state_code": "HDF",
        "state_name": "Hauts-de-France",
        "country_id": 75,
        "country_code": "FR",
        "country_name": "France",
        "latitude": "49.60000000",
        "longitude": "3.51667000",
        "wikiDataId": "Q34797849"
    },
    {
        "id": 41350,
        "name": "Crépy-en-Valois",
        "state_id": 4828,
        "state_code": "HDF",
        "state_name": "Hauts-de-France",
        "country_id": 75,
        "country_code": "FR",
        "country_name": "France",
        "latitude": "49.23359000",
        "longitude": "2.88807000",
        "wikiDataId": "Q182287"
    },
    {
        "id": 41306,
        "name": "Crespin",
        "state_id": 4828,
        "state_code": "HDF",
        "state_name": "Hauts-de-France",
        "country_id": 75,
        "country_code": "FR",
        "country_name": "France",
        "latitude": "50.42110000",
        "longitude": "3.66137000",
        "wikiDataId": "Q270654"
    },
    {
        "id": 41339,
        "name": "Crèvecœur-le-Grand",
        "state_id": 4828,
        "state_code": "HDF",
        "state_name": "Hauts-de-France",
        "country_id": 75,
        "country_code": "FR",
        "country_name": "France",
        "latitude": "49.60000000",
        "longitude": "2.08333000",
        "wikiDataId": "Q748650"
    },
    {
        "id": 41352,
        "name": "Crézancy",
        "state_id": 4828,
        "state_code": "HDF",
        "state_name": "Hauts-de-France",
        "country_id": 75,
        "country_code": "FR",
        "country_name": "France",
        "latitude": "49.04833000",
        "longitude": "3.51047000",
        "wikiDataId": "Q46135"
    },
    {
        "id": 41320,
        "name": "Crisolles",
        "state_id": 4828,
        "state_code": "HDF",
        "state_name": "Hauts-de-France",
        "country_id": 75,
        "country_code": "FR",
        "country_name": "France",
        "latitude": "49.62250000",
        "longitude": "3.01451000",
        "wikiDataId": "Q34797587"
    },
    {
        "id": 41322,
        "name": "Croisilles",
        "state_id": 4828,
        "state_code": "HDF",
        "state_name": "Hauts-de-France",
        "country_id": 75,
        "country_code": "FR",
        "country_name": "France",
        "latitude": "50.19978000",
        "longitude": "2.87935000",
        "wikiDataId": "Q34797587"
    },
    {
        "id": 41325,
        "name": "Croix",
        "state_id": 4828,
        "state_code": "HDF",
        "state_name": "Hauts-de-France",
        "country_id": 75,
        "country_code": "FR",
        "country_name": "France",
        "latitude": "50.67846000",
        "longitude": "3.14930000",
        "wikiDataId": "Q830951"
    },
    {
        "id": 41331,
        "name": "Crouy",
        "state_id": 4828,
        "state_code": "HDF",
        "state_name": "Hauts-de-France",
        "country_id": 75,
        "country_code": "FR",
        "country_name": "France",
        "latitude": "49.40274000",
        "longitude": "3.35834000",
        "wikiDataId": "Q34797705"
    },
    {
        "id": 41332,
        "name": "Crouy-en-Thelle",
        "state_id": 4828,
        "state_code": "HDF",
        "state_name": "Hauts-de-France",
        "country_id": 75,
        "country_code": "FR",
        "country_name": "France",
        "latitude": "49.21487000",
        "longitude": "2.32146000",
        "wikiDataId": "Q34797705"
    },
    {
        "id": 41357,
        "name": "Cucq",
        "state_id": 4828,
        "state_code": "HDF",
        "state_name": "Hauts-de-France",
        "country_id": 75,
        "country_code": "FR",
        "country_name": "France",
        "latitude": "50.47733000",
        "longitude": "1.62018000",
        "wikiDataId": "Q782596"
    },
    {
        "id": 41360,
        "name": "Cuffies",
        "state_id": 4828,
        "state_code": "HDF",
        "state_name": "Hauts-de-France",
        "country_id": 75,
        "country_code": "FR",
        "country_name": "France",
        "latitude": "49.40358000",
        "longitude": "3.32119000",
        "wikiDataId": "Q322680"
    },
    {
        "id": 41365,
        "name": "Cuinchy",
        "state_id": 4828,
        "state_code": "HDF",
        "state_name": "Hauts-de-France",
        "country_id": 75,
        "country_code": "FR",
        "country_name": "France",
        "latitude": "50.51750000",
        "longitude": "2.74880000",
        "wikiDataId": "Q632107"
    },
    {
        "id": 41366,
        "name": "Cuincy",
        "state_id": 4828,
        "state_code": "HDF",
        "state_name": "Hauts-de-France",
        "country_id": 75,
        "country_code": "FR",
        "country_name": "France",
        "latitude": "50.37933000",
        "longitude": "3.05301000",
        "wikiDataId": "Q632107"
    },
    {
        "id": 41367,
        "name": "Cuise-la-Motte",
        "state_id": 4828,
        "state_code": "HDF",
        "state_name": "Hauts-de-France",
        "country_id": 75,
        "country_code": "FR",
        "country_name": "France",
        "latitude": "49.38642000",
        "longitude": "3.00588000",
        "wikiDataId": "Q632107"
    },
    {
        "id": 41375,
        "name": "Curgies",
        "state_id": 4828,
        "state_code": "HDF",
        "state_name": "Hauts-de-France",
        "country_id": 75,
        "country_code": "FR",
        "country_name": "France",
        "latitude": "50.32975000",
        "longitude": "3.60299000",
        "wikiDataId": "Q245451"
    },
    {
        "id": 41388,
        "name": "Cysoing",
        "state_id": 4828,
        "state_code": "HDF",
        "state_name": "Hauts-de-France",
        "country_id": 75,
        "country_code": "FR",
        "country_name": "France",
        "latitude": "50.56939000",
        "longitude": "3.21627000",
        "wikiDataId": "Q428594"
    },
    {
        "id": 41405,
        "name": "Dainville",
        "state_id": 4828,
        "state_code": "HDF",
        "state_name": "Hauts-de-France",
        "country_id": 75,
        "country_code": "FR",
        "country_name": "France",
        "latitude": "50.28097000",
        "longitude": "2.72603000",
        "wikiDataId": "Q241543"
    },
    {
        "id": 41430,
        "name": "Dannes",
        "state_id": 4828,
        "state_code": "HDF",
        "state_name": "Hauts-de-France",
        "country_id": 75,
        "country_code": "FR",
        "country_name": "France",
        "latitude": "50.58799000",
        "longitude": "1.61381000",
        "wikiDataId": "Q390379"
    },
    {
        "id": 41433,
        "name": "Dargnies",
        "state_id": 4828,
        "state_code": "HDF",
        "state_name": "Hauts-de-France",
        "country_id": 75,
        "country_code": "FR",
        "country_name": "France",
        "latitude": "50.04144000",
        "longitude": "1.52526000",
        "wikiDataId": "Q8365"
    },
    {
        "id": 41446,
        "name": "Dechy",
        "state_id": 4828,
        "state_code": "HDF",
        "state_name": "Hauts-de-France",
        "country_id": 75,
        "country_code": "FR",
        "country_name": "France",
        "latitude": "50.35000000",
        "longitude": "3.11667000",
        "wikiDataId": "Q591281"
    },
    {
        "id": 41450,
        "name": "Denain",
        "state_id": 4828,
        "state_code": "HDF",
        "state_name": "Hauts-de-France",
        "country_id": 75,
        "country_code": "FR",
        "country_name": "France",
        "latitude": "50.32930000",
        "longitude": "3.39430000",
        "wikiDataId": "Q217180"
    },
    {
        "id": 41609,
        "name": "Département de l'Aisne",
        "state_id": 4828,
        "state_code": "HDF",
        "state_name": "Hauts-de-France",
        "country_id": 75,
        "country_code": "FR",
        "country_name": "France",
        "latitude": "49.50000000",
        "longitude": "3.50000000",
        "wikiDataId": "Q3093"
    },
    {
        "id": 41621,
        "name": "Département de l'Oise",
        "state_id": 4828,
        "state_code": "HDF",
        "state_name": "Hauts-de-France",
        "country_id": 75,
        "country_code": "FR",
        "country_name": "France",
        "latitude": "49.50000000",
        "longitude": "2.50000000",
        "wikiDataId": "Q12675"
    },
    {
        "id": 41457,
        "name": "Desvres",
        "state_id": 4828,
        "state_code": "HDF",
        "state_name": "Hauts-de-France",
        "country_id": 75,
        "country_code": "FR",
        "country_name": "France",
        "latitude": "50.66884000",
        "longitude": "1.83478000",
        "wikiDataId": "Q762554"
    },
    {
        "id": 41463,
        "name": "Deûlémont",
        "state_id": 4828,
        "state_code": "HDF",
        "state_name": "Hauts-de-France",
        "country_id": 75,
        "country_code": "FR",
        "country_name": "France",
        "latitude": "50.73333000",
        "longitude": "2.95000000",
        "wikiDataId": "Q520698"
    },
    {
        "id": 41496,
        "name": "Divion",
        "state_id": 4828,
        "state_code": "HDF",
        "state_name": "Hauts-de-France",
        "country_id": 75,
        "country_code": "FR",
        "country_name": "France",
        "latitude": "50.47169000",
        "longitude": "2.50546000",
        "wikiDataId": "Q536728"
    },
    {
        "id": 41502,
        "name": "Doingt",
        "state_id": 4828,
        "state_code": "HDF",
        "state_name": "Hauts-de-France",
        "country_id": 75,
        "country_code": "FR",
        "country_name": "France",
        "latitude": "49.92113000",
        "longitude": "2.96766000",
        "wikiDataId": "Q536728"
    },
    {
        "id": 41513,
        "name": "Domart-en-Ponthieu",
        "state_id": 4828,
        "state_code": "HDF",
        "state_name": "Hauts-de-France",
        "country_id": 75,
        "country_code": "FR",
        "country_name": "France",
        "latitude": "50.07437000",
        "longitude": "2.12596000",
        "wikiDataId": "Q769276"
    },
    {
        "id": 41528,
        "name": "Don",
        "state_id": 4828,
        "state_code": "HDF",
        "state_name": "Hauts-de-France",
        "country_id": 75,
        "country_code": "FR",
        "country_name": "France",
        "latitude": "50.54912000",
        "longitude": "2.91817000",
        "wikiDataId": "Q59701"
    },
    {
        "id": 41545,
        "name": "Douai",
        "state_id": 4828,
        "state_code": "HDF",
        "state_name": "Hauts-de-France",
        "country_id": 75,
        "country_code": "FR",
        "country_name": "France",
        "latitude": "50.37069000",
        "longitude": "3.07922000",
        "wikiDataId": "Q193826"
    },
    {
        "id": 41549,
        "name": "Douchy-les-Mines",
        "state_id": 4828,
        "state_code": "HDF",
        "state_name": "Hauts-de-France",
        "country_id": 75,
        "country_code": "FR",
        "country_name": "France",
        "latitude": "50.30080000",
        "longitude": "3.39270000",
        "wikiDataId": "Q922518"
    },
    {
        "id": 41553,
        "name": "Doullens",
        "state_id": 4828,
        "state_code": "HDF",
        "state_name": "Hauts-de-France",
        "country_id": 75,
        "country_code": "FR",
        "country_name": "France",
        "latitude": "50.15724000",
        "longitude": "2.34019000",
        "wikiDataId": "Q69055"
    },
    {
        "id": 41555,
        "name": "Dourges",
        "state_id": 4828,
        "state_code": "HDF",
        "state_name": "Hauts-de-France",
        "country_id": 75,
        "country_code": "FR",
        "country_name": "France",
        "latitude": "50.43636000",
        "longitude": "2.98589000",
        "wikiDataId": "Q841275"
    },
    {
        "id": 41560,
        "name": "Douvrin",
        "state_id": 4828,
        "state_code": "HDF",
        "state_name": "Hauts-de-France",
        "country_id": 75,
        "country_code": "FR",
        "country_name": "France",
        "latitude": "50.50916000",
        "longitude": "2.83053000",
        "wikiDataId": "Q854870"
    },
    {
        "id": 41572,
        "name": "Dreslincourt",
        "state_id": 4828,
        "state_code": "HDF",
        "state_name": "Hauts-de-France",
        "country_id": 75,
        "country_code": "FR",
        "country_name": "France",
        "latitude": "49.52809000",
        "longitude": "2.92699000",
        "wikiDataId": "Q942968"
    },
    {
        "id": 41573,
        "name": "Dreuil-lès-Amiens",
        "state_id": 4828,
        "state_code": "HDF",
        "state_name": "Hauts-de-France",
        "country_id": 75,
        "country_code": "FR",
        "country_name": "France",
        "latitude": "49.91483000",
        "longitude": "2.22893000",
        "wikiDataId": "Q942968"
    },
    {
        "id": 41575,
        "name": "Drocourt",
        "state_id": 4828,
        "state_code": "HDF",
        "state_name": "Hauts-de-France",
        "country_id": 75,
        "country_code": "FR",
        "country_name": "France",
        "latitude": "50.39002000",
        "longitude": "2.92425000",
        "wikiDataId": "Q142410"
    },
    {
        "id": 41588,
        "name": "Duisans",
        "state_id": 4828,
        "state_code": "HDF",
        "state_name": "Hauts-de-France",
        "country_id": 75,
        "country_code": "FR",
        "country_name": "France",
        "latitude": "50.30633000",
        "longitude": "2.68653000",
        "wikiDataId": "Q1617753"
    },
    {
        "id": 41592,
        "name": "Dunkerque",
        "state_id": 4828,
        "state_code": "HDF",
        "state_name": "Hauts-de-France",
        "country_id": 75,
        "country_code": "FR",
        "country_name": "France",
        "latitude": "51.03297000",
        "longitude": "2.37700000",
        "wikiDataId": "Q45797"
    },
    {
        "id": 41598,
        "name": "Dury",
        "state_id": 4828,
        "state_code": "HDF",
        "state_name": "Hauts-de-France",
        "country_id": 75,
        "country_code": "FR",
        "country_name": "France",
        "latitude": "49.84731000",
        "longitude": "2.27070000",
        "wikiDataId": "Q819837"
    },
    {
        "id": 48037,
        "name": "Écaillon",
        "state_id": 4828,
        "state_code": "HDF",
        "state_name": "Hauts-de-France",
        "country_id": 75,
        "country_code": "FR",
        "country_name": "France",
        "latitude": "50.35034000",
        "longitude": "3.21664000",
        "wikiDataId": "Q273297"
    },
    {
        "id": 48049,
        "name": "Écourt-Saint-Quentin",
        "state_id": 4828,
        "state_code": "HDF",
        "state_name": "Hauts-de-France",
        "country_id": 75,
        "country_code": "FR",
        "country_name": "France",
        "latitude": "50.25226000",
        "longitude": "3.07331000",
        "wikiDataId": "Q609005"
    },
    {
        "id": 41657,
        "name": "Ecques",
        "state_id": 4828,
        "state_code": "HDF",
        "state_name": "Hauts-de-France",
        "country_id": 75,
        "country_code": "FR",
        "country_name": "France",
        "latitude": "50.66998000",
        "longitude": "2.28633000",
        "wikiDataId": "Q21347"
    },
    {
        "id": 48064,
        "name": "Éleu-dit-Leauwette",
        "state_id": 4828,
        "state_code": "HDF",
        "state_name": "Hauts-de-France",
        "country_id": 75,
        "country_code": "FR",
        "country_name": "France",
        "latitude": "50.42147000",
        "longitude": "2.81079000",
        "wikiDataId": "Q240546"
    },
    {
        "id": 48067,
        "name": "Émerchicourt",
        "state_id": 4828,
        "state_code": "HDF",
        "state_name": "Hauts-de-France",
        "country_id": 75,
        "country_code": "FR",
        "country_name": "France",
        "latitude": "50.30786000",
        "longitude": "3.24537000",
        "wikiDataId": "Q274801"
    },
    {
        "id": 41667,
        "name": "Emmerin",
        "state_id": 4828,
        "state_code": "HDF",
        "state_name": "Hauts-de-France",
        "country_id": 75,
        "country_code": "FR",
        "country_name": "France",
        "latitude": "50.59475000",
        "longitude": "3.00124000",
        "wikiDataId": "Q541052"
    },
    {
        "id": 41670,
        "name": "Englefontaine",
        "state_id": 4828,
        "state_code": "HDF",
        "state_name": "Hauts-de-France",
        "country_id": 75,
        "country_code": "FR",
        "country_name": "France",
        "latitude": "50.19091000",
        "longitude": "3.64401000",
        "wikiDataId": "Q255105"
    },
    {
        "id": 41673,
        "name": "Ennetières-en-Weppes",
        "state_id": 4828,
        "state_code": "HDF",
        "state_name": "Hauts-de-France",
        "country_id": 75,
        "country_code": "FR",
        "country_name": "France",
        "latitude": "50.63530000",
        "longitude": "2.94012000",
        "wikiDataId": "Q255105"
    },
    {
        "id": 41674,
        "name": "Ennevelin",
        "state_id": 4828,
        "state_code": "HDF",
        "state_name": "Hauts-de-France",
        "country_id": 75,
        "country_code": "FR",
        "country_name": "France",
        "latitude": "50.54121000",
        "longitude": "3.12972000",
        "wikiDataId": "Q255105"
    },
    {
        "id": 48071,
        "name": "Épehy",
        "state_id": 4828,
        "state_code": "HDF",
        "state_name": "Hauts-de-France",
        "country_id": 75,
        "country_code": "FR",
        "country_name": "France",
        "latitude": "50.00000000",
        "longitude": "3.13333000",
        "wikiDataId": "Q274801"
    },
    {
        "id": 48072,
        "name": "Éperlecques",
        "state_id": 4828,
        "state_code": "HDF",
        "state_name": "Hauts-de-France",
        "country_id": 75,
        "country_code": "FR",
        "country_name": "France",
        "latitude": "50.80566000",
        "longitude": "2.15207000",
        "wikiDataId": "Q287123"
    },
    {
        "id": 41688,
        "name": "Eppeville",
        "state_id": 4828,
        "state_code": "HDF",
        "state_name": "Hauts-de-France",
        "country_id": 75,
        "country_code": "FR",
        "country_name": "France",
        "latitude": "49.74069000",
        "longitude": "3.05114000",
        "wikiDataId": "Q82064"
    },
    {
        "id": 48088,
        "name": "Équihen-Plage",
        "state_id": 4828,
        "state_code": "HDF",
        "state_name": "Hauts-de-France",
        "country_id": 75,
        "country_code": "FR",
        "country_name": "France",
        "latitude": "50.67557000",
        "longitude": "1.57225000",
        "wikiDataId": "Q1060599"
    },
    {
        "id": 41691,
        "name": "Ercuis",
        "state_id": 4828,
        "state_code": "HDF",
        "state_name": "Hauts-de-France",
        "country_id": 75,
        "country_code": "FR",
        "country_name": "France",
        "latitude": "49.23465000",
        "longitude": "2.30407000",
        "wikiDataId": "Q82064"
    },
    {
        "id": 41699,
        "name": "Erquinghem-Lys",
        "state_id": 4828,
        "state_code": "HDF",
        "state_name": "Hauts-de-France",
        "country_id": 75,
        "country_code": "FR",
        "country_name": "France",
        "latitude": "50.67601000",
        "longitude": "2.84505000",
        "wikiDataId": "Q838741"
    },
    {
        "id": 41701,
        "name": "Erre",
        "state_id": 4828,
        "state_code": "HDF",
        "state_name": "Hauts-de-France",
        "country_id": 75,
        "country_code": "FR",
        "country_name": "France",
        "latitude": "50.36252000",
        "longitude": "3.31561000",
        "wikiDataId": "Q868650"
    },
    {
        "id": 41706,
        "name": "Escaudain",
        "state_id": 4828,
        "state_code": "HDF",
        "state_name": "Hauts-de-France",
        "country_id": 75,
        "country_code": "FR",
        "country_name": "France",
        "latitude": "50.33315000",
        "longitude": "3.34430000",
        "wikiDataId": "Q900984"
    },
    {
        "id": 41707,
        "name": "Escaudœuvres",
        "state_id": 4828,
        "state_code": "HDF",
        "state_name": "Hauts-de-France",
        "country_id": 75,
        "country_code": "FR",
        "country_name": "France",
        "latitude": "50.20000000",
        "longitude": "3.26667000",
        "wikiDataId": "Q630749"
    },
    {
        "id": 41708,
        "name": "Escautpont",
        "state_id": 4828,
        "state_code": "HDF",
        "state_name": "Hauts-de-France",
        "country_id": 75,
        "country_code": "FR",
        "country_name": "France",
        "latitude": "50.41875000",
        "longitude": "3.55341000",
        "wikiDataId": "Q1106584"
    },
    {
        "id": 41712,
        "name": "Esches",
        "state_id": 4828,
        "state_code": "HDF",
        "state_name": "Hauts-de-France",
        "country_id": 75,
        "country_code": "FR",
        "country_name": "France",
        "latitude": "49.22086000",
        "longitude": "2.16595000",
        "wikiDataId": "Q511910"
    },
    {
        "id": 41723,
        "name": "Esquéhéries",
        "state_id": 4828,
        "state_code": "HDF",
        "state_name": "Hauts-de-France",
        "country_id": 75,
        "country_code": "FR",
        "country_name": "France",
        "latitude": "49.98391000",
        "longitude": "3.74743000",
        "wikiDataId": "Q259803"
    },
    {
        "id": 41720,
        "name": "Esquelbecq",
        "state_id": 4828,
        "state_code": "HDF",
        "state_name": "Hauts-de-France",
        "country_id": 75,
        "country_code": "FR",
        "country_name": "France",
        "latitude": "50.88694000",
        "longitude": "2.43215000",
        "wikiDataId": "Q624890"
    },
    {
        "id": 41721,
        "name": "Esquerdes",
        "state_id": 4828,
        "state_code": "HDF",
        "state_name": "Hauts-de-France",
        "country_id": 75,
        "country_code": "FR",
        "country_name": "France",
        "latitude": "50.70414000",
        "longitude": "2.18851000",
        "wikiDataId": "Q259803"
    },
    {
        "id": 41724,
        "name": "Essars",
        "state_id": 4828,
        "state_code": "HDF",
        "state_name": "Hauts-de-France",
        "country_id": 75,
        "country_code": "FR",
        "country_name": "France",
        "latitude": "50.54868000",
        "longitude": "2.66620000",
        "wikiDataId": "Q259803"
    },
    {
        "id": 41727,
        "name": "Essigny-le-Grand",
        "state_id": 4828,
        "state_code": "HDF",
        "state_name": "Hauts-de-France",
        "country_id": 75,
        "country_code": "FR",
        "country_name": "France",
        "latitude": "49.77865000",
        "longitude": "3.27774000",
        "wikiDataId": "Q1085872"
    },
    {
        "id": 41728,
        "name": "Essômes-sur-Marne",
        "state_id": 4828,
        "state_code": "HDF",
        "state_name": "Hauts-de-France",
        "country_id": 75,
        "country_code": "FR",
        "country_name": "France",
        "latitude": "49.02881000",
        "longitude": "3.37571000",
        "wikiDataId": "Q1085872"
    },
    {
        "id": 41730,
        "name": "Estaires",
        "state_id": 4828,
        "state_code": "HDF",
        "state_name": "Hauts-de-France",
        "country_id": 75,
        "country_code": "FR",
        "country_name": "France",
        "latitude": "50.64574000",
        "longitude": "2.72782000",
        "wikiDataId": "Q732710"
    },
    {
        "id": 41732,
        "name": "Estevelles",
        "state_id": 4828,
        "state_code": "HDF",
        "state_name": "Hauts-de-France",
        "country_id": 75,
        "country_code": "FR",
        "country_name": "France",
        "latitude": "50.47653000",
        "longitude": "2.90928000",
        "wikiDataId": "Q989662"
    },
    {
        "id": 41737,
        "name": "Estrées",
        "state_id": 4828,
        "state_code": "HDF",
        "state_name": "Hauts-de-France",
        "country_id": 75,
        "country_code": "FR",
        "country_name": "France",
        "latitude": "50.30079000",
        "longitude": "3.06980000",
        "wikiDataId": "Q1069558"
    },
    {
        "id": 41738,
        "name": "Estrées-Saint-Denis",
        "state_id": 4828,
        "state_code": "HDF",
        "state_name": "Hauts-de-France",
        "country_id": 75,
        "country_code": "FR",
        "country_name": "France",
        "latitude": "49.42602000",
        "longitude": "2.64293000",
        "wikiDataId": "Q1069558"
    },
    {
        "id": 48096,
        "name": "Étampes-sur-Marne",
        "state_id": 4828,
        "state_code": "HDF",
        "state_name": "Hauts-de-France",
        "country_id": 75,
        "country_code": "FR",
        "country_name": "France",
        "latitude": "49.03464000",
        "longitude": "3.41893000",
        "wikiDataId": "Q205584"
    },
    {
        "id": 48098,
        "name": "Étaples",
        "state_id": 4828,
        "state_code": "HDF",
        "state_name": "Hauts-de-France",
        "country_id": 75,
        "country_code": "FR",
        "country_name": "France",
        "latitude": "50.52194000",
        "longitude": "1.63319000",
        "wikiDataId": "Q273522"
    },
    {
        "id": 48107,
        "name": "Étreillers",
        "state_id": 4828,
        "state_code": "HDF",
        "state_name": "Hauts-de-France",
        "country_id": 75,
        "country_code": "FR",
        "country_name": "France",
        "latitude": "49.83059000",
        "longitude": "3.16029000",
        "wikiDataId": "Q849338"
    },
    {
        "id": 48111,
        "name": "Étreux",
        "state_id": 4828,
        "state_code": "HDF",
        "state_name": "Hauts-de-France",
        "country_id": 75,
        "country_code": "FR",
        "country_name": "France",
        "latitude": "49.98333000",
        "longitude": "3.65000000",
        "wikiDataId": "Q290936"
    },
    {
        "id": 48119,
        "name": "Évin-Malmaison",
        "state_id": 4828,
        "state_code": "HDF",
        "state_name": "Hauts-de-France",
        "country_id": 75,
        "country_code": "FR",
        "country_name": "France",
        "latitude": "50.43923000",
        "longitude": "3.03139000",
        "wikiDataId": "Q273017"
    },